[
    {
    "position": "",
    "latitude": "31.668636",
    "longitude": "-106.398474",
    "type": "school",
    "name": "Karim TaeKwondo",
    "email": "info@gimnasio360.com",
    "phone": "(656) 215-3554",
    "address": " Av. Paseo de la Victoria, 9750, Plaza san Andres Infonavit ",
    "icon": "images/karim.png",
    "website": "http://www.facebook.com/KarimTaekwondo"
    },
{
    "position": "",
    "latitude": "31.738461",
    "longitude": "-106.432013",
    "type": "business",
    "name": "Mercedes Benz",
    "email": "touche-motors@dchrysler.com.mx",
    "phone": "(656) 6-17-14-16",
    "address": " Paseo Triunfo de la República,   6080",
    "icon": "images/mercedes.png",
    "website": "http://www.touche-motors.com.mx"
  },
  {
    "position": "",
    "latitude": "31.686519",
    "longitude": "-106.408988",
    "type": "health",
    "name": "Total Fitness",
    "email": "juarez@totalfitnessmexico.com",
    "phone": "(656) 6482140",
    "address": " Teófilo Borunda, 8681, Local 11",
    "icon": "images/totalFitness.png",
    "website": "http://totalfitnessmexico.com/ciudadjuarez/"
  },
  {
    "position": "",
    "latitude": "31.708509",
    "longitude": "-106.406464",
    "type": "health",
    "name": "360 Fit Center",
    "email": "info@gimnasio360.com",
    "phone": "(656) 6-48-5360",
    "address": " Blvd. Gomez Morin, 8130",
    "icon": "images/360.png",
    "website": "http://www.gimnasio360.com/"
  },
  {
    "position": "",
    "latitude": "31.8573",
    "longitude": "-106.432013",
    "type": "health",
    "name": "TELEPARK",
    "email": "heathdawson@telepark.com",
    "phone": "+52 (863) 513-3631",
    "address": " Friel Place,   3235",
    "icon": "images/map-marker.png",
    "website": "http://www.powersportsmagazine.com"
  },
  {
    "position": "",
    "latitude": "31.68573",
    "longitude": "-106.442013",
    "type": "food",
    "name": "MELBACOR",
    "email": "heathdawson@melbacor.com",
    "phone": "+52 (803) 527-3195",
    "address": " Stewart Street,   3999",
    "icon": "images/map-marker.png",
    "website": "http://www.powersportsmagazine.com"
  },
  {
    "position": "",
    "latitude": "31.748509",
    "longitude": "-106.452013",
    "type": "business",
    "name": "PHARMEX",
    "email": "heathdawson@pharmex.com",
    "phone": "+52 (970) 413-3098",
    "icon": "images/map-marker.png",
    "address": " Moffat Street,   3884",
    "website": "http://www.powersportsmagazine.com"
  },
  {
    "position": "",
    "latitude": "31.728509",
    "longitude": "-106.442013",
    "type": "business",
    "name": "NORALI",
    "email": "heathdawson@norali.com",
    "phone": "+52 (944) 469-2815",
    "address": " Dorset Street,   4548",
    "icon": "images/map-marker.png",
    "website": "http://www.powersportsmagazine.com"
  },
  {
    "position": ")",
    "latitude": "31.748579",
    "longitude": "-106.472013",
    "type": "health",
    "name": "INSURETY",
    "email": "heathdawson@insurety.com",
    "phone": "+52 (920) 593-3713",
    "address": " Bowne Street,   6050",
    "icon": "images/map-marker.png",
    "website": "http://www.powersportsmagazine.com"
  },
  {
    "position": "",
    "latitude": "31.728509",
    "longitude": "-106.482013",
    "type": "gym",
    "name": "REMOTION",
    "email": "heathdawson@remotion.com",
    "phone": "+52 (903) 429-3977",
    "address": " Coleman Street,   9979",
    "icon": "images/map-marker.png",
    "website": "http://www.powersportsmagazine.com"
  },
  {
    "position": "",
    "latitude": "31.748779",
    "longitude": "-106.492013",
    "type": "health",
    "name": "ZERBINA",
    "email": "heathdawson@zerbina.com",
    "phone": "+52 (979) 505-2501",
    "address": " Oakland Place,   8978",
    "icon": "images/map-marker.png",
    "website": "http://www.powersportsmagazine.com"
  },
  {
    "position": "",
    "latitude": "31.675509",
    "longitude": "-106.432113",
    "type": "other",
    "name": "CYTREX",
    "email": "heathdawson@cytrex.com",
    "phone": "+52 (823) 435-3660",
    "address": " Bradford Street,   4325",
    "icon": "images/map-marker.png",
    "website": "http://www.powersportsmagazine.com"
  },
  {
    "position": "",
    "latitude": "31.748501",
    "longitude": "-106.432213",
    "type": "food",
    "name": "FREAKIN",
    "email": "heathdawson@freakin.com",
    "phone": "+52 (982) 521-3680",
    "address": " Ralph Avenue,   7016",
    "icon": "images/map-marker.png",
    "website": "http://www.powersportsmagazine.com"
  },
  {
    "position": "",
    "latitude": "31.678509",
    "longitude": "-106.433013",
    "type": "gym",
    "name": "SKYBOLD",
    "email": "heathdawson@skybold.com",
    "phone": "+52 (854) 441-3714",
    "address": " Stillwell Avenue,   8636",
    "icon": "images/map-marker.png",
    "website": "http://www.powersportsmagazine.com"
  },
  {
    "position": "",
    "latitude": "31.688579",
    "longitude": "-106.434013",
    "type": "health",
    "name": "GLUID",
    "email": "heathdawson@gluid.com",
    "phone": "+52 (872) 471-2010",
    "address": " Estate Road,   8735",
    "icon": "images/map-marker.png",
    "website": "http://www.powersportsmagazine.com"
  },
  {
    "position": "",
    "latitude": "31.8573",
    "longitude": "-106.435013",
    "type": "health",
    "name": "ZILLAR",
    "email": "heathdawson@zillar.com",
    "phone": "+52 (897) 523-2165",
    "address": " Arkansas Drive,   2546",
    "icon": "images/map-marker.png",
    "website": "http://www.powersportsmagazine.com"
  },
  {
    "position": "",
    "latitude": "31.638599",
    "longitude": "-106.436013",
    "type": "health",
    "name": "KNEEDLES",
    "email": "heathdawson@kneedles.com",
    "phone": "+52 (860) 431-3782",
    "address": " Bond Street,   8424",
    "icon": "images/map-marker.png",
    "website": "http://www.powersportsmagazine.com"
  },
  {
    "position": "",
    "latitude": "31.668609",
    "longitude": "-106.437013",
    "type": "food",
    "name": "LIMAGE",
    "email": "heathdawson@limage.com",
    "phone": "+52 (841) 571-3722",
    "address": " Broome Street,   7565",
    "icon": "images/map-marker.png",
    "website": "http://www.powersportsmagazine.com"
  },
  {
    "position": "",
    "latitude": "31.638509",
    "longitude": "-106.438013",
    "type": "gym",
    "name": "HONOTRON",
    "email": "heathdawson@honotron.com",
    "phone": "+52 (841) 553-3019",
    "address": " Crosby Avenue,   1342",
    "icon": "images/map-marker.png",
    "website": "http://www.powersportsmagazine.com"
  },
  {
    "position": "",
    "latitude": "31.628509",
    "longitude": "-106.439013",
    "type": "other",
    "name": "RONELON",
    "email": "heathdawson@ronelon.com",
    "phone": "+52 (917) 512-3178",
    "address": " Commercial Street,   7258",
    "icon": "images/map-marker.png",
    "website": "http://www.powersportsmagazine.com"
  },
  {
    "position": "",
    "latitude": "31.748567",
    "longitude": "-106.432913",
    "type": "food",
    "name": "TALKOLA",
    "email": "heathdawson@talkola.com",
    "phone": "+52 (959) 427-2269",
    "address": " Schroeders Avenue,   288",
    "icon": "images/map-marker.png",
    "website": "http://www.powersportsmagazine.com"
  },
  {
    "position": "",
    "latitude": "31.748590",
    "longitude": "-106.432813",
    "type": "gym",
    "name": "SCENTY",
    "email": "heathdawson@scenty.com",
    "phone": "+52 (814) 568-3378",
    "address": " Stryker Street,   3740",
    "icon": "images/map-marker.png",
    "website": "http://www.powersportsmagazine.com"
  },
  {
    "position": "",
    "latitude": "31.727709",
    "longitude": "-106.432713",
    "type": "other",
    "name": "FLUMBO",
    "email": "heathdawson@flumbo.com",
    "phone": "+52 (994) 484-3157",
    "address": " Foster Avenue,   4685",
    "icon": "images/map-marker.png",
    "website": "http://www.powersportsmagazine.com"
  },
  {
    "position": "",
    "latitude": "31.666509",
    "longitude": "-106.432613",
    "type": "gym",
    "name": "KENEGY",
    "email": "heathdawson@kenegy.com",
    "phone": "+52 (924) 473-2914",
    "address": " Meserole Avenue,   3111",
    "icon": "images/map-marker.png",
    "website": "http://www.powersportsmagazine.com"
  }

]
